City_ID,City,Country,Max Temp,Current Description,Lat,Lng,Hotel Name
0,Busselton,AU,46.0,clear sky,-33.65,115.3333,Observatory Guest House
3,Ushuaia,AR,51.8,light rain,-54.8,-68.3,Albatros Hotel
5,Sarkand,KZ,41.09,overcast clouds,45.41,79.9186,Гостиница Сарканд
6,Pustoshka,RU,34.27,overcast clouds,56.3355,29.369,Yubileinaya Hotel
9,Hami,CN,47.28,overcast clouds,42.8,93.45,Laoyutang Resort
10,Vila,PT,39.99,few clouds,42.0304,-8.1588,Hotel Castrum Villae by Walk Hotels
24,Nikolskoye,RU,32.0,snow,59.7035,30.7861,Tourist House - Sablino
30,Tasiilaq,GL,15.8,scattered clouds,65.6145,-37.6368,The Red House
35,Belyy Yar,RU,24.8,snow,53.6039,91.3903,Pasportnyy Stol
36,Sept-Iles,CA,28.99,overcast clouds,50.2001,-66.3821,Comfort Inn
37,Deep River,CA,26.6,light snow,46.1001,-77.4995,Deep River Motel
42,Anapskaya,RU,26.6,overcast clouds,44.89,37.38,Continent Hotel
51,Kodiak,US,24.8,clear sky,57.79,-152.4072,Best Western Kodiak Inn And Convention Center
52,Ostersund,SE,28.4,overcast clouds,63.1792,14.6357,Best Western Hotel Gamla Teatern
54,Jamestown,US,46.4,clear sky,42.097,-79.2353,Hampton Inn & Suites Jamestown
55,Grindavik,IS,30.2,clear sky,63.8424,-22.4338,Northern Light Inn & Max's Restaurant
57,Severo-Kurilsk,RU,24.03,overcast clouds,50.6789,156.125,Kak Doma
58,Honningsvag,NO,26.22,overcast clouds,70.9821,25.9704,Nordkapp Vandrerhjem
70,Leh,IN,14.92,clear sky,34.1667,77.5833,Hotel Ladakh Greens
80,Dryden,CA,26.6,clear sky,49.7833,-92.7503,Holiday Inn Express Dryden
83,Okha,RU,22.32,scattered clouds,53.5739,142.9478,Империя
85,Iisalmi,FI,19.4,overcast clouds,63.5592,27.1907,Original Sokos Hotel Koljonvirta
92,Saint George,US,44.01,broken clouds,37.1041,-113.5841,Best Western Plus Abbey Inn
94,Port Hardy,CA,44.6,light rain,50.6996,-127.4199,Airport Inn
96,Utica,US,50.0,broken clouds,43.1009,-75.2327,Days Inn by Wyndham Utica
103,Gillette,US,42.8,overcast clouds,44.2911,-105.5022,National 9 Inn - Gillette WY
118,Cairo Montenotte,IT,52.0,clear sky,44.4031,8.2746,Albergo della Stazione
125,Ayr,GB,39.0,overcast clouds,55.4627,-4.6339,Mercure Ayr Hotel
130,Porosozero,RU,20.3,light snow,62.7191,32.727,Porosozero
132,Penzance,GB,48.2,broken clouds,50.1186,-5.5371,Artist Residence Penzance
133,Hofn,IS,36.07,overcast clouds,64.2539,-15.2082,Hótel Höfn
138,Juneau,US,32.0,mist,58.3019,-134.4197,"Baranof Downtown, Bw Signature Collection"
142,Leshukonskoye,RU,13.75,broken clouds,64.8989,45.7622,Pryalitsa Hostel
143,Kremze,CZ,36.0,scattered clouds,48.905,14.3057,Penzion u Sevcu
144,Broome,US,51.8,clear sky,42.2506,-75.833,Chenango Valley State Park
152,Komsomolskiy,UZ,50.0,scattered clouds,40.4272,71.7189,Ikathouse
159,Griffith,US,46.99,clear sky,41.5284,-87.4237,"Motel 6 Hammond, IN - Chicago Area"
161,Katsuura,JP,53.01,moderate rain,35.1333,140.3,Katsuura Hotel Mikazuki
162,Beidao,CN,45.59,clear sky,34.5686,105.8933,Shell Tianshui Maiji District Erma Road Walking Street Hotel
171,Harnosand,SE,32.0,mist,62.6323,17.9379,First Hotel Stadt
176,Shingu,JP,53.6,broken clouds,33.7333,135.9833,Shingu UI Hotel
178,Vestmanna,FO,39.2,broken clouds,62.1564,-7.1664,Budget Guesthouse Borgustova
179,Vardo,NO,23.0,broken clouds,70.3705,31.1107,Vardø Hotel AS
188,Atherton,GB,44.01,overcast clouds,53.5237,-2.4935,The Lion Inn
189,Swan River,CA,35.6,overcast clouds,52.1058,-101.2676,Super 8 by Wyndham Swan River MB
193,Torbay,CA,42.01,light rain,47.6666,-52.7314,Gallows Cove
194,Atchison,US,45.0,overcast clouds,39.563,-95.1216,"Quality Inn, Atchison"
195,Qaqortoq,GL,14.0,broken clouds,60.7167,-46.0333,Hotel Qaqortoq
197,Alekseyevka,RU,21.63,light snow,50.6309,38.6903,Apartment on Ploshchad Pobedy
198,Jinxiang,CN,54.34,overcast clouds,27.4327,120.6062,Wolong Village
208,Rongcheng,CN,48.15,overcast clouds,30.634,117.8517,Shell Shandong Liaocheng Development District South Huangshan Road Hotel
209,Nantucket,US,51.8,clear sky,41.2835,-70.0995,Jared Coffin House
211,Yar-Sale,RU,12.6,overcast clouds,66.8333,70.8333,Yalemd
218,Great Yarmouth,GB,44.6,overcast clouds,52.6083,1.7305,Comfort Hotel Great Yarmouth
228,Ust-Ordynskiy,RU,32.0,clear sky,52.805,104.7508,Hotel Metelitsa
234,Solnechnyy,RU,26.44,broken clouds,50.7214,136.6319,Hotel complex Pastoral
238,Annau,TM,32.0,light snow,37.8876,58.516000000000005,Buzmein Sokak
239,Burns Lake,CA,44.6,overcast clouds,54.2331,-125.7533,Burns Lake Bed and Breakfast
250,Soloneshnoye,RU,16.41,snow,51.6544,84.3197,"Lesnaya Skazka, Baza Otdykha"
251,Nerchinskiy Zavod,RU,14.63,scattered clouds,51.3088,119.61,Tat'yana
257,Navahrudak,BY,29.34,broken clouds,53.6,25.8333,Hotel Grazhina
269,Shahr-E Babak,IR,53.33,overcast clouds,30.1165,55.1186,اقامتگاه گردشگری دوناdunagarden ecolodge
270,Semey,KZ,11.64,light snow,50.4111,80.2275,Hotel Zhana-Tau
280,Narsaq,GL,14.0,broken clouds,60.9167,-46.05,Hotel Narsaq
282,Council Bluffs,US,51.8,broken clouds,41.2619,-95.8608,Holiday Inn Express & Suites Council Bluffs - Conv Ctr Area
288,Havre-Saint-Pierre,CA,30.2,overcast clouds,50.2334,-63.5986,Auberge Niapiskau
289,Boulder City,US,50.0,few clouds,35.9786,-114.8325,Boulder Dam Hotel
290,Vyazma,RU,21.07,light snow,55.2104,34.2951,«Континенталь» - гостинично-ресторанный комплекс
291,Abu Kamal,SY,48.43,clear sky,34.4506,40.9171,محطة التلفاز
294,Tawang,IN,38.59,clear sky,27.5833,91.8667,Hotel Mount View
299,Aksu,CN,44.35,scattered clouds,41.1231,80.2644,Pudong Holiday Hotel
300,Lichuan,CN,48.88,overcast clouds,30.3,108.85,Yicheng Hotel
306,Klaksvik,FO,39.2,broken clouds,62.2266,-6.5889999999999995,Airbnb rooms
309,Spring Valley,US,51.01,sleet,36.108000000000004,-115.245,Westgate Flamingo Bay Resort
311,Zabaykalsk,RU,25.66,few clouds,49.6333,117.3167,Gostinitsa Zolotoy Drakon
315,Sorland,NO,38.89,overcast clouds,67.667,12.6934,Sjybrygga fiskecamp
316,Nemuro,JP,30.78,clear sky,43.3236,145.575,Hotel Nemuro Kaiyoutei
317,Kalamazoo,US,44.6,clear sky,42.2506,-85.55,Four Points by Sheraton Kalamazoo
322,Thompson,CA,24.8,scattered clouds,55.7435,-97.8558,Burntwood Hotel
326,Colares,PT,54.0,overcast clouds,38.7992,-9.4469,Arribas Sintra Hotel
327,Gallipoli,TR,37.4,clear sky,40.4103,26.6708,Oya Hotel
328,Burriana,ES,53.01,clear sky,39.889,-0.085,Hotel Beatriz
343,Lata,PT,53.01,scattered clouds,40.1629,-8.3327,Casa Maquia
344,Ponferrada,ES,46.0,scattered clouds,42.5466,-6.5962,Hotel Temple Ponferrada
357,Muros,ES,51.01,scattered clouds,42.7762,-9.0603,Apartment Av. Castelao
361,Ilulissat,GL,10.4,scattered clouds,69.2167,-51.1,Hotel Arctic
365,Zhangye,CN,48.15,clear sky,38.9342,100.4517,Zhangye Lvzhou Holiday Inn
371,Sheridan,US,50.0,clear sky,44.8333,-106.9173,Comfort Inn & Suites
372,Huadian,CN,37.8,overcast clouds,42.9633,126.7478,Huadian Forestry Bureau
375,Silifke,TR,49.46,clear sky,36.3778,33.9344,Ayatekla Hotel
378,Labytnangi,RU,14.9,overcast clouds,66.6572,66.4183,Priuralye Hotel
381,Andenes,NO,32.0,overcast clouds,69.3143,16.1194,Hotell Marena
385,Xining,CN,35.85,clear sky,36.6167,101.7667,Super Leisure Hotel
387,Gdov,RU,35.17,overcast clouds,58.7406,27.8122,Ustje Beach Resort
391,Antigonish,CA,50.0,clear sky,45.6169,-61.9986,Claymore Inn and Suites
399,Smiths Falls,CA,42.8,broken clouds,44.9001,-76.0161,Best Western Smiths Falls Hotel
400,Chapleau,CA,15.8,few clouds,47.8405,-83.4034,Nemegosenda Lake Lodge
402,Rapid Valley,US,50.0,overcast clouds,44.0625,-103.1463,Fairfield Inn & Suites by Marriott Rapid City
404,Skjervoy,NO,27.25,overcast clouds,70.0311,20.9714,Skjervøy Byggeservice AS
407,Abashiri,JP,28.0,clear sky,44.0213,144.2697,Tōyoko Inn Hokkaidō Okhotsk Abashiri Ekimae
408,Bingol,TR,23.27,clear sky,38.8847,40.4939,Vali Konağı
412,Hit,IQ,51.82,clear sky,33.6416,42.8251,صالون زيرو
414,Louga,RU,35.22,overcast clouds,58.7372,29.8453,U Lysoy Gory Hotel
416,Postojna,SI,42.01,overcast clouds,45.7769,14.2167,Hotel Epicenter
421,Puhja,EE,37.99,overcast clouds,58.3419,26.3147,Sääniku talu puhkekeskus
425,Zagare,LT,37.4,overcast clouds,56.3592,23.25,AnasNamas
426,Baykalsk,RU,31.01,broken clouds,51.5058,104.1469,Park-Otel' Belyy Sobol'
430,Dongsheng,CN,37.35,clear sky,39.8161,109.9776,Crowne Plaza Ordos
433,Beringovskiy,RU,32.16,snow,63.05,179.3167,Beringgorski
434,Ingham,US,44.01,clear sky,42.6,-84.3833,Sunset Place
436,High Level,CA,28.4,broken clouds,58.5169,-117.13600000000001,Days Inn by Wyndham High Level
443,Kizukuri,JP,43.0,broken clouds,40.8061,140.3861,Hotel memory
444,High Prairie,CA,46.4,overcast clouds,55.4334,-116.4858,Royal Star Motor Inn
445,Nusaybin,TR,41.95,clear sky,37.0778,41.2178,Aydinlar Hotel
446,Zaysan,KZ,30.34,snow,47.4667,84.8667,Ерлан үй
448,Sitka,US,35.6,light snow,57.0531,-135.33,Westmark Sitka
451,Mingshui,CN,53.01,broken clouds,36.7167,117.5,Grace Inn Zhangqiu Station Avenue Branch
457,Safranbolu,TR,32.38,broken clouds,41.2508,32.6942,Canbulat & Canbulat Tourism
459,Ghedi,IT,48.99,mist,45.4011,10.2793,Hotel La Piana
468,Fort Nelson,CA,30.2,overcast clouds,58.8053,-122.7002,The Fort Nelson Hotel
469,Brae,GB,41.0,broken clouds,60.3964,-1.3530000000000002,Busta House Hotel
473,Shieli,KZ,16.45,overcast clouds,44.1667,66.75,Gostinitsa Aybek Shieli
476,Uyemskiy,RU,17.6,clear sky,64.4743,40.8524,Malyye Karely
480,Siirt,TR,32.25,clear sky,37.9326,41.9403,Barden Otel
481,Farsund,NO,39.99,clear sky,58.0948,6.8047,Farsund Fjordhotel
487,Miyako,JP,43.77,broken clouds,39.6367,141.9525,Hotel Route Inn Miyako
490,Huron,US,51.01,broken clouds,41.1501,-82.5499,Meadow Brook Mobile Estates
492,Nanortalik,GL,14.85,clear sky,60.1432,-45.2371,Hotel Kap Farvel
495,Suicheng,CN,44.92,overcast clouds,33.8963,117.9331,Junyue Hotel
496,Yuanping,CN,41.18,clear sky,38.7153,112.7575,Yuanping Xinghe Guesthouse
497,Syracuse,IT,53.6,clear sky,37.0881,15.2792,Hotel Posta
499,Trzebiatow,PL,43.0,overcast clouds,54.0615,15.2648,MNE Apartament
506,Larsnes,NO,39.0,overcast clouds,62.2028,5.5773,Liset Feriesenter AS
507,Hovd,MN,30.24,broken clouds,48.0056,91.6419,Hotel Khovd
515,Akureyri,IS,30.2,light snow,65.6835,-18.0878,Icelandair Hotel Akureyri
516,Vestmannaeyjar,IS,35.51,overcast clouds,63.4427,-20.2734,Glamping & Camping
523,Husavik,IS,30.2,light snow,66.0449,-17.3389,Bjarnabúð
526,La Ronge,CA,41.0,broken clouds,55.1001,-105.2842,Northland Motor Hotel
528,Salmas,IR,32.0,light snow,38.1973,44.7653,Ata Hotel
533,Abrau-Dyurso,RU,26.6,overcast clouds,44.69,37.59,Avgustin Inn
541,Kletnya,RU,23.38,snow,53.3897,33.2171,Gostinitsa-Otel' Kletnya
542,Changji,CN,32.0,overcast clouds,44.0167,87.3167,Lvye Holiday Resort
547,Lohmar,DE,45.0,scattered clouds,50.8333,7.2167,Kaiserhof
558,Sisimiut,GL,14.2,overcast clouds,66.9395,-53.6735,Hotel Sisimiut
561,Jiayuguan,CN,44.4,scattered clouds,39.8167,98.3,Jiugang Hotel - Jiayuguan
562,Penarroya-Pueblonuevo,ES,50.0,clear sky,38.3,-5.2667,Casa Rural Los Miraderos De Cristina
567,Ciro Marina,IT,48.2,clear sky,39.3732,17.125999999999998,Hotel Miramare
570,Kumla,SE,39.2,broken clouds,59.1277,15.1434,Kumla Hotel
574,Ulagan,RU,20.46,broken clouds,50.6321,87.9563,Gostevoy Dom
582,Weihai,CN,41.85,broken clouds,37.5017,122.1136,Beihai Travel Resort
583,Collie,AU,46.0,clear sky,-33.3667,116.15,Collie Ridge
584,Verbilki,RU,19.4,snow,56.5333,37.6,Country Resort
590,Berlevag,NO,23.0,light snow,70.8578,29.0864,Kvitbrakka
596,Tongliao,CN,32.47,clear sky,43.6125,122.2653,Meirujia Hotel
599,Petropavlovsk-Kamchatskiy,RU,21.2,broken clouds,53.0452,158.6483,"ООО ""Гостиничный комплекс ""Петропавловск"""
601,Sechelt,CA,48.99,broken clouds,49.4664,-123.7694,The Driftwood Inn
608,Nuuk,GL,15.8,few clouds,64.1835,-51.7216,Vandrehuset
609,Roald,NO,41.0,scattered clouds,62.5833,6.1333,Flem Cabins
612,Katunino,RU,17.6,clear sky,64.3862,40.6298,Klovoye Mesto.reka Iles
614,Torbat-E Jam,IR,54.95,overcast clouds,35.244,60.6225,White building
619,Zheleznodorozhnyy,RU,21.2,light snow,55.7503,38.0042,Hotel Dali
621,Imeni Poliny Osipenko,RU,19.58,broken clouds,52.4201,136.4853,Yubileynaya
623,Goderich,CA,32.0,scattered clouds,43.7501,-81.7165,Harmony Inn
624,Hella,NO,34.0,clear sky,67.2,14.4333,Kobbosen
628,Tarbagatay,RU,12.2,few clouds,51.4803,107.3602,"Meditativnyy Tsentr ""Sansara"""
633,Bonavista,CA,41.0,overcast clouds,48.6499,-53.1147,Abbott's Bed & Breakfast
642,Liuhe,CN,39.78,moderate rain,42.2401,125.7172,Grain Hostel
644,Bourges,FR,46.4,overcast clouds,47.25,2.4167,Thomas
653,Cervo,ES,51.01,broken clouds,43.6702,-7.4101,Hotel Spa Galatea
655,Tottori,JP,50.0,mist,35.5,134.2333,Hotel Monarque Tottori
656,Wucheng,CN,52.0,overcast clouds,29.6008,118.175,Xiuwu Restaurant
658,Narimanov,RU,14.0,clear sky,46.6927,47.8498,Solnechnyi
662,Shelburne,CA,32.0,scattered clouds,44.0787,-80.2041,The Retreat at the Farm
663,Golpayegan,IR,37.26,overcast clouds,33.4537,50.2884,Golpayegan Tourist Hotel
664,Lingyuan,CN,36.75,broken clouds,41.24,119.4011,Guomao Hotel
667,Jumla,NP,43.97,overcast clouds,29.2747,82.1838,"अन्नी घर, जुम्ला - Anni Ghar"
669,Olsztyn,PL,33.8,clear sky,53.7799,20.4942,Hostel Wysoka Brama Noclegi Pokoje Najlepszy Hostel Apartamenty Komfortowy Hostel Hotel
671,Bahar,IR,31.75,snow,34.9072,48.4414,نمایندگی سایپا اسدی 20406
676,Fuyu,CN,31.62,scattered clouds,45.1833,124.8167,Education Hostel
680,Sooke,CA,51.01,scattered clouds,48.3746,-123.7276,Sooke Harbour House Hotel & Resort
682,Olden,NO,37.4,broken clouds,61.8364,6.8064,Nesset Fjordcamping Olden
685,Perpignan,FR,51.01,scattered clouds,42.75,2.75,Le moulin a huile de l'agly
687,Margate,GB,46.0,overcast clouds,51.3813,1.3862,Premier Inn Margate hotel
690,Chapais,CA,17.6,light snow,49.7834,-74.8492,Hôtel Opémiska
691,Nexo,DK,41.0,overcast clouds,55.0607,15.1306,Strandhotel Balka Søbad
693,Golden,US,44.01,overcast clouds,39.7555,-105.2211,"The Golden Hotel, Ascend Hotel Collection"
699,Milkovo,RU,14.16,overcast clouds,54.7167,158.6167,"Hotel ""Geologist"""
701,Ushtobe,KZ,43.18,overcast clouds,45.2514,77.9838,"Gostinitsa ""Diyar"""
702,Asau,RO,37.0,broken clouds,46.4333,26.4,Casa Mika Ciobanus
704,Wlodawa,PL,33.01,broken clouds,51.55,23.55,Ośrodek Wypoczynkowy Ranczo
708,Beyneu,KZ,19.81,overcast clouds,45.3167,55.2,NUR
711,Baruun-Urt,MN,28.65,overcast clouds,46.6806,113.2792,Ахмадын амралт сувилал
